[{"lat":"-28.1024911","lng":"153.42799809999997","id":865447,"name":"FINEPRINT co","phone":"0755768888","email":"digital@fineprintco.com","web":"http:\/\/fineprintco.com","webdisplay":"fineprintco.com","address":"13\/110 Kortum Drive Burleigh","country":"Australia","state":"Queensland","city":"Gold Coast","postal":"4220"},{"lat":"-33.9106466","lng":"151.19886109999993","id":865448,"name":"Coco Republic","phone":"1300 000 220","email":"alexandriashowroom@cocorepublic.com.au","web":"http:\/\/www.cocorepublic.com.au","webdisplay":"cocorepublic.com.au","address":"24-34 Oâ€™Riordan Street Alexandria","country":"Australia","state":"New South Wales","city":"Sydney","postal":"2015"},{"lat":"-37.8275724","lng":"144.99734820000003","id":865449,"name":"Coco Republic","phone":"1300 000 220 |","email":"richmondshowroom@cocorepublic.com.au","web":"http:\/\/www.cocorepublic.com.au","webdisplay":"cocorepublic.com.au","address":"500 Church Street Richmond","country":"Australia","state":"Victoria","city":"Melbourne","postal":"3121 "},{"lat":"-27.4544362","lng":"153.0362741","id":865450,"name":"Coco Republic","phone":"1300 000 220 ","email":"fortitudevalleyshowroom@cocorepublic.com.au","web":"http:\/\/www.cocorepublic.com.au","webdisplay":"cocorepublic.com.au","address":"400 Wickham Street Fortitude Valley  ","country":"Australia","state":"Queensland","city":"Brisbane","postal":"4006 "},{"lat":"-33.8280323","lng":"151.20106580000004","id":865451,"name":"Coco Republic","phone":"1300000220","email":"crowsnestshowroom@cocorepublic.com.au","web":"http:\/\/www.cocorepublic.com.au","webdisplay":"cocorepublic.com.au","address":"420 Pacific Highway Crows Nest ","country":"Australia","state":"New South Wales","city":"Sydney","postal":"2065 "},{"lat":"-38.0078075","lng":"145.27396","id":865452,"name":"Framing to a T","phone":"(03) 9796 3398","email":"cath@framingtoat.com.au","web":"https:\/\/framingtoat.com.au","webdisplay":"framingtoat.com.au","address":"Factory 19 \/ 2-10 Hallam Road","country":"Australia","state":"Victoria","city":"Melbourne","postal":"3803"},{"lat":"-37.915715","lng":"144.99665600000003","id":865453,"name":"Framing to a T","phone":"(03) 9553 8885","email":"tony@framingtoat.com.au","web":"https:\/\/framingtoat.com.au","webdisplay":"framingtoat.com.au","address":"143 Church Street, Brighton ","country":"Australia","state":"Victoria","city":"Melbourne","postal":"3186"},{"lat":"-38.2197352","lng":"145.03897170000005","id":865454,"name":"Big Chair","phone":"03 5976 1960","email":"admin@bigchair.com.au","web":"http:\/\/bigchair.com.au","webdisplay":"bigchair.com.au","address":"118 Main St, Mornington ","country":"Australia","state":"Victoria","city":"Melbourne","postal":"3931"},{"lat":"-38.33999","lng":"144.7378817","id":865455,"name":"Big Chair Sorrento","phone":"03 5984 3388","email":"sorrento@bigchair.com.au","web":"http:\/\/bigchair.com.au","webdisplay":"bigchair.com.au","address":"119 Ocean Beach Rd, Sorrento ","country":"Australia","state":"Victoria","city":"Melbourne","postal":"3943"},{"lat":"-37.8614981","lng":"145.0281539","id":865456,"name":"Crate Expectations","phone":"(03) 9576 2717","email":"info@crateexpectations.com.au","web":"http:\/\/www.crateexpectations.com.au","webdisplay":"crateexpectations.com.au","address":"1A Llaneast St Malvern ","country":"Australia","state":"Victoria","city":"Melbourne","postal":"3144"},{"lat":"-37.93842","lng":"145.00212609999994","id":865457,"name":"Crate Expectations","phone":"(03) 9598 5027","email":"info@crateexpectations.com.au","web":"http:\/\/crateexpectations.com.au","webdisplay":"crateexpectations.com.au","address":"313 Hampton St Hampton ","country":"Australia","state":"Victoria","city":"Melbourne","postal":"3188"},{"lat":"-37.798783","lng":"145.24065399999995","id":865458,"name":"At Home Style","phone":"0411 122 368","email":"info@athomestyle.com.au","web":"https:\/\/athomestyle.com.au","webdisplay":"athomestyle.com.au","address":"40 Panfield Ave, Ringwood","country":"Australia","state":"Victoria","city":"Melbourne","postal":"3134"},{"lat":"-28.5531686","lng":"153.5021815","id":865459,"name":"Cactus Hill Project","phone":"(02) 6684 6110","web":"http:\/\/cactushillproject.business.site","webdisplay":"http:\/\/cactushillproject.business.site","address":"74-82 Burringbar St Mullumbimby ","country":"Australia","state":"New South Wales","city":"Mullumbimby "},{"lat":"-26.3986008","lng":"153.09113760000002","id":868795,"name":"Clo Studios","phone":"07 5455 3310","email":"hello@clostudios.com.au","web":"https:\/\/clostudios.com.au\/","webdisplay":"clostudios.com.au\/","address":"Shop 3, 10 Lanyana Way, Noosa Junction ","country":"Australia","state":"Queensland","city":"Noosa","postal":"4567"},{"lat":"-26.400172","lng":"153.062274","id":868963,"name":"Eclectic Style","phone":"07 54702946","email":"hello@clostudios.com.au","web":"http:\/\/www.eclecticstyle.com.au\/","webdisplay":"http:\/\/www.eclecticstyle.com.au\/","address":"Shop 10, Noosa Homemaker Centre, Thomas street","country":"Australia","state":"Queensland","city":"Noosa","postal":"4566"},{"lat":"-28.6318228","lng":"153.58263940000006","id":869418,"name":"Super Habitat","phone":"0755768888","email":"info@habitatbyronbay.com","web":"http:\/\/www.habitatbyronbay.com\/","webdisplay":"habitatbyronbay.com","address":"No. 1 Porter Street","country":"Australia","state":"New South Wales","city":"Byron Bay"},{"lat":"-38.146896","lng":"144.36130100000003","id":870061,"name":"Kardinia Picture Framing","phone":"03 5229 3168","email":"enquiries@kardiniapictureframing.com.au","web":"https:\/\/www.kardiniapictureframing.com.au","webdisplay":"kardiniapictureframing.com.au","address":"345 Moorabool St, Geelong ","country":"Australia","state":"Victoria","city":"Melbourne","postal":"3220"},{"lat":"-31.94568","lng":"115.79843000000005","id":870954,"name":"Asbury Park Agency ","phone":"0409882196","web":"http:\/\/www.asburyparkagency.com.au","webdisplay":"asburyparkagency.com.au","address":"45 Kirwan Street, Floreat ","country":"Australia","state":"Western Australia","city":"Perth","postal":"6014"},{"lat":"-34.9575862","lng":"138.60823519999997","id":870955,"name":"Art & Frane","phone":"08 8373 4640","email":"info@artandframe.com.au","web":"https:\/\/www.artandframe.com.au","webdisplay":"artandframe.com.au","address":"273 Unley Road","country":"Australia","state":"South Australia","city":"Malvern","postal":"5061"},{"lat":"-37.8209708","lng":"145.1051592","id":870956,"name":"Mont Albert Interiors","phone":"03 9898 4278","email":"info@montalbertinteriors.com.au","web":"https:\/\/www.montalbertinteriors.com.au","webdisplay":"montalbertinteriors.com.au","address":"8 Hamilton Street  Mont Albert  ","country":"Australia","state":"Victoria","city":"Melbourne","postal":"3127"},{"lat":"-31.93793","lng":"115.86961999999994","id":871545,"name":"Empire Homewares","email":"cm@empirehome.com.au","address":"521 Beaufort Street","country":"Australia","state":"Western Australia","city":"Highgate","postal":"6003"},{"lat":"-37.9390906","lng":"145.0023923","id":871547,"name":"Frankie and Coco","phone":"(03) 9533 4650","email":"richmondshowroom@cocorepublic.com.au","web":"https:\/\/frankieandcoco.com\/","webdisplay":"frankieandcoco.com\/","address":"398 Hampton St","country":"Australia","state":"Victoria","city":"Melbourne","postal":"3121"},{"lat":"-44.69557409999999","lng":"169.13513009999997","id":871548,"name":"Gifted Design","phone":"03 443 2035","email":"info@gifteddesign.co.nz","web":"https:\/\/www.gifteddesign.co.nz","webdisplay":"gifteddesign.co.nz","address":"19 helwick st","country":"New Zealand","city":"Wanaka","postal":"9305"},{"lat":"-33.8663764","lng":"151.16645600000004","id":871550,"name":"Life Interiors","phone":"1300 544 899 ","email":"alexandriashowroom@cocorepublic.com.au","web":"http:\/\/www.lifeinteriors.com.au\/","webdisplay":"lifeinteriors.com.au\/","address":"505 Balmain Road Lilyfield ","country":"Australia","state":"New South Wales","city":"Sydney","postal":"2040"},{"lat":"-37.7999161","lng":"144.99652070000002","id":871551,"name":"Life Interiors","phone":"1300 544 899","web":"http:\/\/www.lifeinteriors.com.au","webdisplay":"lifeinteriors.com.au","address":"336 - 338 Johnston St Abbortsford","country":"Australia","state":"Victoria","city":"Melbourne","postal":"3067"},{"lat":"-26.481179","lng":"153.09648200000004","id":871552,"name":"Midmodoz Peregian","phone":"617 54482314","email":"digital@fineprintco.com","web":"http:\/\/www.midmodoz.com.au\/","webdisplay":"midmodoz.com.au\/","address":"Peregian Beach Village Square 2 Kingfisher Drive Peregian Beach","country":"Australia","state":"Queensland","postal":"4573"},{"lat":"-34.9358262","lng":"138.63178590000007","id":871554,"name":"One rundle trading co Dulwich ","phone":"(08) 8431 3033","email":"sales@onerundle.com.au","web":"http:\/\/www.onerundle.com.au","webdisplay":"onerundle.com.au","address":"dulwich 20 Stuart Road Dulwich, SA 5065","country":"Australia","state":"South Australia","city":"Adelaide","postal":"5065"},{"lat":"-34.91916500000001","lng":"138.49453319999998","id":871555,"name":"One rundle trading co Henley Beach","phone":"(08) 8235 0136","email":"kirsty@onerundle.com.au","web":"http:\/\/www.onerundle.com.au","webdisplay":"onerundle.com.au","address":"Shop 26, 340 Seaview Road Henley Beach","country":"Australia","state":"South Australia","city":"Adelaide","postal":"5022"},{"lat":"-33.8760559","lng":"151.21294360000002","id":871556,"name":"RP Art","phone":"02 9356  4433","email":"sales@spagonline.com.au","web":"http:\/\/www.rpart.com.au","webdisplay":"rpart.com.au","address":"Shop 1 Ground Floor Lumina  1 Francis St  East Sydney ","country":"Australia","state":"New South Wales","city":"Sydney","postal":"2010"},{"lat":"-27.4556885","lng":"153.03890419999993","id":871557,"name":"St Barts Brisbane ","phone":"(07) 32577166","email":"brisbane@st-barts.com.au","web":"https:\/\/st-barts.com.au","webdisplay":"st-barts.com.au","address":"6\/31 James St, Brisbane 4006","country":"Australia","state":"Queensland","city":"Brisbane","postal":"4006"},{"lat":"-27.9797967","lng":"153.40984830000002","id":871558,"name":"St Barts Southport","phone":"(07) 55280766","email":"goldcoast@st-barts.com.au","web":"https:\/\/st-barts.com.au","webdisplay":"st-barts.com.au","address":"107 Ferry Road, Southport ","country":"Australia","state":"Queensland","city":"Gold Coast","postal":"4215"},{"lat":"-37.8990537","lng":"145.08992130000001","id":1000984,"name":"Dig if U Will","address":"7-9 Eaton Mall ","country":"Australia","state":"Victoria","city":"Oakleigh ","postal":"3166"}]